{
"type": "FeatureCollection",
"name": "peaks",
"crs": { "type": "name", "properties": { "name": "urn:ogc:def:crs:OGC:1.3:CRS84" } },
"features": [
{ "type": "Feature", "properties": { "id": "node/26864005", "name": "Monte Volturino", "elevation": 1835.0 }, "geometry": { "type": "Point", "coordinates": [ 15.80958, 40.41232 ] } },
{ "type": "Feature", "properties": { "id": "node/2228725416", "name": "Timpa d'Albano", "elevation": 1628.0 }, "geometry": { "type": "Point", "coordinates": [ 15.7392, 40.48727 ] } },
{ "type": "Feature", "properties": { "id": "node/2563142807", "name": "Monte la Croce", "elevation": 1386.0 }, "geometry": { "type": "Point", "coordinates": [ 15.83554, 40.38232 ] } },
{ "type": "Feature", "properties": { "id": "node/2563143430", "name": "Monte Augustella", "elevation": 1577.0 }, "geometry": { "type": "Point", "coordinates": [ 15.84915, 40.3865 ] } },
{ "type": "Feature", "properties": { "id": "node/2563143460", "name": "il Monte", "elevation": 1727.0 }, "geometry": { "type": "Point", "coordinates": [ 15.85662, 40.38124 ] } },
{ "type": "Feature", "properties": { "id": "node/2563144168", "name": "la Civita", "elevation": 980.0 }, "geometry": { "type": "Point", "coordinates": [ 15.8164, 40.38068 ] } },
{ "type": "Feature", "properties": { "id": "node/2563144401", "name": "Monte Corno", "elevation": 1128.0 }, "geometry": { "type": "Point", "coordinates": [ 15.80688, 40.38983 ] } },
{ "type": "Feature", "properties": { "id": "node/2563145218", "name": "Serritello", "elevation": 1184.0 }, "geometry": { "type": "Point", "coordinates": [ 15.81894, 40.39029 ] } },
{ "type": "Feature", "properties": { "id": "node/2563145691", "name": "Monte San Nicola", "elevation": 1314.0 }, "geometry": { "type": "Point", "coordinates": [ 15.78375, 40.39523 ] } },
{ "type": "Feature", "properties": { "id": "node/2563148803", "name": "Monte Farneta", "elevation": 1047.0 }, "geometry": { "type": "Point", "coordinates": [ 15.78749, 40.38947 ] } },
{ "type": "Feature", "properties": { "id": "node/2563151791", "name": "Monte Sant'Enoe", "elevation": 1476.0 }, "geometry": { "type": "Point", "coordinates": [ 15.91005, 40.36849 ] } },
{ "type": "Feature", "properties": { "id": "node/2563155000", "name": "Monte Macio del Podano", "elevation": 1286.0 }, "geometry": { "type": "Point", "coordinates": [ 15.91695, 40.39287 ] } },
{ "type": "Feature", "properties": { "id": "node/2563155299", "name": "Monte Masana", "elevation": 1202.0 }, "geometry": { "type": "Point", "coordinates": [ 15.93369, 40.37807 ] } },
{ "type": "Feature", "properties": { "id": "node/2612673970", "name": "Il Monte", "elevation": 1410.0 }, "geometry": { "type": "Point", "coordinates": [ 15.73192, 40.46821 ] } },
{ "type": "Feature", "properties": { "id": "node/2612673975", "name": "Monte Facito", "elevation": 1359.0 }, "geometry": { "type": "Point", "coordinates": [ 15.70586, 40.46889 ] } },
{ "type": "Feature", "properties": { "id": "node/2612673980", "name": "Monte Lama", "elevation": 1566.0 }, "geometry": { "type": "Point", "coordinates": [ 15.76916, 40.45775 ] } },
{ "type": "Feature", "properties": { "id": "node/2612673986", "name": "Monte Maruggio", "elevation": 1576.0 }, "geometry": { "type": "Point", "coordinates": [ 15.73772, 40.48013 ] } },
{ "type": "Feature", "properties": { "id": "node/2612674012", "name": "Pietra Maura", "elevation": 1328.0 }, "geometry": { "type": "Point", "coordinates": [ 15.71872, 40.45642 ] } },
{ "type": "Feature", "properties": { "id": "node/2612674030", "name": "Serra di Calvello", "elevation": 1567.0 }, "geometry": { "type": "Point", "coordinates": [ 15.77683, 40.457 ] } },
{ "type": "Feature", "properties": { "id": "node/2612674036", "name": "Timpa del Lupo", "elevation": 1316.0 }, "geometry": { "type": "Point", "coordinates": [ 15.73982, 40.46838 ] } },
{ "type": "Feature", "properties": { "id": "node/2620301252", "name": "Monte Calvelluzzo", "elevation": 1699.0 }, "geometry": { "type": "Point", "coordinates": [ 15.79098, 40.42688 ] } },
{ "type": "Feature", "properties": { "id": "node/6552503323", "name": "Monte San Jaso", "elevation": 1298.0 }, "geometry": { "type": "Point", "coordinates": [ 15.97439, 40.35326 ] } },
{ "type": "Feature", "properties": { "id": "node/7852175549", "name": "monte cognone", "elevation": 1032.0 }, "geometry": { "type": "Point", "coordinates": [ 15.72937, 40.43538 ] } },
{ "type": "Feature", "properties": { "id": "node/9416530674", "name": "Tempa Farna", "elevation": 1037.4 }, "geometry": { "type": "Point", "coordinates": [ 16.01267, 40.36306 ] } },
{ "type": "Feature", "properties": { "id": "node/9416638023", "name": "Monte Garbo", "elevation": 1222.3 }, "geometry": { "type": "Point", "coordinates": [ 15.98207, 40.36496 ] } },
{ "type": "Feature", "properties": { "id": "node/9502985773", "name": "Monte dell'Agresto", "elevation": 1285.0 }, "geometry": { "type": "Point", "coordinates": [ 16.00501, 40.34271 ] } },
{ "type": "Feature", "properties": { "id": "node/10026653483", "name": "Monte Petrone", "elevation": 786.3 }, "geometry": { "type": "Point", "coordinates": [ 15.86611, 40.34451 ] } },
{ "type": "Feature", "properties": { "id": "node/10026653484", "name": "Monte Castelluccio", "elevation": 782.0 }, "geometry": { "type": "Point", "coordinates": [ 15.87834, 40.34135 ] } },
{ "type": "Feature", "properties": { "id": "node/10030147015", "name": "Tempa Prelazia", "elevation": 829.0 }, "geometry": { "type": "Point", "coordinates": [ 16.0302, 40.34665 ] } },
{ "type": "Feature", "properties": { "id": "node/10075471061", "name": "Serra Lago Todaro", "elevation": 1122.4 }, "geometry": { "type": "Point", "coordinates": [ 15.9578, 40.36973 ] } },
{ "type": "Feature", "properties": { "id": "node/2563010975", "name": "Monte Cavallo", "elevation": 1401.0 }, "geometry": { "type": "Point", "coordinates": [ 15.66114, 40.39382 ] } },
{ "type": "Feature", "properties": { "id": "node/2563356046", "name": "Cozzo Vaccaro", "elevation": 1234.0 }, "geometry": { "type": "Point", "coordinates": [ 15.68007, 40.39336 ] } },
{ "type": "Feature", "properties": { "id": "node/10283120037", "name": "Raia Caldarosa", "elevation": 782.8 }, "geometry": { "type": "Point", "coordinates": [ 15.8025, 40.33591 ] } }
]
}
