{
"type": "FeatureCollection",
"name": "peaks",
"crs": { "type": "name", "properties": { "name": "urn:ogc:def:crs:OGC:1.3:CRS84" } },
"xy_coordinate_resolution": 1e-05,
"features": [
{ "type": "Feature", "properties": { "id": "node/2563015301", "name": "Tempa di Cosimano", "elevation": 852.0 }, "geometry": { "type": "Point", "coordinates": [ 15.59231, 40.32159 ] } },
{ "type": "Feature", "properties": { "id": "node/2563017462", "name": "Preta Conca", "elevation": 848.0 }, "geometry": { "type": "Point", "coordinates": [ 15.60458, 40.3067 ] } },
{ "type": "Feature", "properties": { "id": "node/2563017858", "name": "Monte Nuovo", "elevation": 1029.0 }, "geometry": { "type": "Point", "coordinates": [ 15.59557, 40.28962 ] } },
{ "type": "Feature", "properties": { "id": "node/2563018226", "name": "Tempa d'Inferno", "elevation": 927.0 }, "geometry": { "type": "Point", "coordinates": [ 15.59505, 40.28376 ] } },
{ "type": "Feature", "properties": { "id": "node/2563019411", "name": "Monte Serra Lunga", "elevation": 1014.0 }, "geometry": { "type": "Point", "coordinates": [ 15.58364, 40.28271 ] } },
{ "type": "Feature", "properties": { "id": "node/2563023379", "name": "Fossa la Pecora", "elevation": 982.0 }, "geometry": { "type": "Point", "coordinates": [ 15.58445, 40.26742 ] } },
{ "type": "Feature", "properties": { "id": "node/11668897338", "name": "Monte Carmelo", "elevation": 901.0 }, "geometry": { "type": "Point", "coordinates": [ 15.61167, 40.28335 ] } },
{ "type": "Feature", "properties": { "id": "node/26864005", "name": "Monte Volturino", "elevation": 1835.0 }, "geometry": { "type": "Point", "coordinates": [ 15.80958, 40.41232 ] } },
{ "type": "Feature", "properties": { "id": "node/2228725416", "name": "Timpa d'Albano", "elevation": 1628.0 }, "geometry": { "type": "Point", "coordinates": [ 15.7392, 40.48727 ] } },
{ "type": "Feature", "properties": { "id": "node/2228725494", "name": "Monte Arioso", "elevation": 1709.0 }, "geometry": { "type": "Point", "coordinates": [ 15.74625, 40.49488 ] } },
{ "type": "Feature", "properties": { "id": "node/2353703259", "name": "Monte la Stagliata", "elevation": 1047.0 }, "geometry": { "type": "Point", "coordinates": [ 15.65624, 40.51966 ] } },
{ "type": "Feature", "properties": { "id": "node/2353715764", "name": "Costa di Turri", "elevation": 1048.0 }, "geometry": { "type": "Point", "coordinates": [ 15.6635, 40.49733 ] } },
{ "type": "Feature", "properties": { "id": "node/2477045631", "name": "Monte Crocetta", "elevation": 1319.0 }, "geometry": { "type": "Point", "coordinates": [ 15.78721, 40.5513 ] } },
{ "type": "Feature", "properties": { "id": "node/2526866869", "name": "Capelluzzo", "elevation": 1402.0 }, "geometry": { "type": "Point", "coordinates": [ 15.70704, 40.51502 ] } },
{ "type": "Feature", "properties": { "id": "node/2560217343", "name": "Monte Voccaglione", "elevation": 1042.0 }, "geometry": { "type": "Point", "coordinates": [ 15.66032, 40.51008 ] } },
{ "type": "Feature", "properties": { "id": "node/2563142807", "name": "Monte la Croce", "elevation": 1386.0 }, "geometry": { "type": "Point", "coordinates": [ 15.83554, 40.38232 ] } },
{ "type": "Feature", "properties": { "id": "node/2563143430", "name": "Monte Augustella", "elevation": 1577.0 }, "geometry": { "type": "Point", "coordinates": [ 15.84915, 40.3865 ] } },
{ "type": "Feature", "properties": { "id": "node/2563143460", "name": "il Monte", "elevation": 1727.0 }, "geometry": { "type": "Point", "coordinates": [ 15.85662, 40.38124 ] } },
{ "type": "Feature", "properties": { "id": "node/2563144168", "name": "la Civita", "elevation": 980.0 }, "geometry": { "type": "Point", "coordinates": [ 15.8164, 40.38068 ] } },
{ "type": "Feature", "properties": { "id": "node/2563144401", "name": "Monte Corno", "elevation": 1128.0 }, "geometry": { "type": "Point", "coordinates": [ 15.80688, 40.38983 ] } },
{ "type": "Feature", "properties": { "id": "node/2563145218", "name": "Serritello", "elevation": 1184.0 }, "geometry": { "type": "Point", "coordinates": [ 15.81894, 40.39029 ] } },
{ "type": "Feature", "properties": { "id": "node/2563145691", "name": "Monte San Nicola", "elevation": 1314.0 }, "geometry": { "type": "Point", "coordinates": [ 15.78375, 40.39523 ] } },
{ "type": "Feature", "properties": { "id": "node/2563148803", "name": "Monte Farneta", "elevation": 1047.0 }, "geometry": { "type": "Point", "coordinates": [ 15.78749, 40.38947 ] } },
{ "type": "Feature", "properties": { "id": "node/2563151791", "name": "Monte Sant'Enoe", "elevation": 1476.0 }, "geometry": { "type": "Point", "coordinates": [ 15.91005, 40.36849 ] } },
{ "type": "Feature", "properties": { "id": "node/2563155000", "name": "Monte Macio del Podano", "elevation": 1286.0 }, "geometry": { "type": "Point", "coordinates": [ 15.91695, 40.39287 ] } },
{ "type": "Feature", "properties": { "id": "node/2563155299", "name": "Monte Masana", "elevation": 1202.0 }, "geometry": { "type": "Point", "coordinates": [ 15.93369, 40.37807 ] } },
{ "type": "Feature", "properties": { "id": "node/2612673970", "name": "Il Monte", "elevation": 1410.0 }, "geometry": { "type": "Point", "coordinates": [ 15.73192, 40.46821 ] } },
{ "type": "Feature", "properties": { "id": "node/2612673975", "name": "Monte Facito", "elevation": 1359.0 }, "geometry": { "type": "Point", "coordinates": [ 15.70586, 40.46889 ] } },
{ "type": "Feature", "properties": { "id": "node/2612673980", "name": "Monte Lama", "elevation": 1566.0 }, "geometry": { "type": "Point", "coordinates": [ 15.76916, 40.45775 ] } },
{ "type": "Feature", "properties": { "id": "node/2612673986", "name": "Monte Maruggio", "elevation": 1576.0 }, "geometry": { "type": "Point", "coordinates": [ 15.73772, 40.48013 ] } },
{ "type": "Feature", "properties": { "id": "node/2612673992", "name": "Monte Pierfaone", "elevation": 1683.0 }, "geometry": { "type": "Point", "coordinates": [ 15.74874, 40.5065 ] } },
{ "type": "Feature", "properties": { "id": "node/2612674012", "name": "Pietra Maura", "elevation": 1328.0 }, "geometry": { "type": "Point", "coordinates": [ 15.71872, 40.45642 ] } },
{ "type": "Feature", "properties": { "id": "node/2612674019", "name": "Pietra del Tasso", "elevation": 1554.0 }, "geometry": { "type": "Point", "coordinates": [ 15.75755, 40.50965 ] } },
{ "type": "Feature", "properties": { "id": "node/2612674024", "name": "Serra Giumenta", "elevation": 1425.0 }, "geometry": { "type": "Point", "coordinates": [ 15.76748, 40.49044 ] } },
{ "type": "Feature", "properties": { "id": "node/2612674030", "name": "Serra di Calvello", "elevation": 1567.0 }, "geometry": { "type": "Point", "coordinates": [ 15.77683, 40.457 ] } },
{ "type": "Feature", "properties": { "id": "node/2612674036", "name": "Timpa del Lupo", "elevation": 1316.0 }, "geometry": { "type": "Point", "coordinates": [ 15.73982, 40.46838 ] } },
{ "type": "Feature", "properties": { "id": "node/2620301252", "name": "Monte Calvelluzzo", "elevation": 1699.0 }, "geometry": { "type": "Point", "coordinates": [ 15.79098, 40.42688 ] } },
{ "type": "Feature", "properties": { "id": "node/2627477673", "name": "Serranetta", "elevation": 1475.0 }, "geometry": { "type": "Point", "coordinates": [ 15.81944, 40.56304 ] } },
{ "type": "Feature", "properties": { "id": "node/2627665573", "name": "Ciglio", "elevation": 1439.0 }, "geometry": { "type": "Point", "coordinates": [ 15.81409, 40.56022 ] } },
{ "type": "Feature", "properties": { "id": "node/2635488123", "name": "Monteforte", "elevation": 1444.0 }, "geometry": { "type": "Point", "coordinates": [ 15.80271, 40.52462 ] } },
{ "type": "Feature", "properties": { "id": "node/2635519219", "name": "Serra Tuoppo", "elevation": 1226.0 }, "geometry": { "type": "Point", "coordinates": [ 15.82185, 40.52418 ] } },
{ "type": "Feature", "properties": { "id": "node/2689532051", "name": "Pisco", "elevation": 1089.0 }, "geometry": { "type": "Point", "coordinates": [ 15.80118, 40.55637 ] } },
{ "type": "Feature", "properties": { "id": "node/2770483405", "name": "Serra della Criva", "elevation": 1368.0 }, "geometry": { "type": "Point", "coordinates": [ 15.72658, 40.53122 ] } },
{ "type": "Feature", "properties": { "id": "node/2798197446", "name": "Tempa Volpaccia", "elevation": 1159.0 }, "geometry": { "type": "Point", "coordinates": [ 15.76395, 40.53209 ] } },
{ "type": "Feature", "properties": { "id": "node/2866990430", "name": "Groppa d'Anzi", "elevation": 1141.0 }, "geometry": { "type": "Point", "coordinates": [ 15.90009, 40.54641 ] } },
{ "type": "Feature", "properties": { "id": "node/2866990432", "name": "Toppa Giampietro", "elevation": 1145.0 }, "geometry": { "type": "Point", "coordinates": [ 15.82943, 40.53954 ] } },
{ "type": "Feature", "properties": { "id": "node/2894163724", "name": "Timpa dell'Olmo", "elevation": 1247.0 }, "geometry": { "type": "Point", "coordinates": [ 15.73049, 40.5367 ] } },
{ "type": "Feature", "properties": { "id": "node/3850148082", "name": "Tempa del Gioco", "elevation": 1313.0 }, "geometry": { "type": "Point", "coordinates": [ 15.77698, 40.52158 ] } },
{ "type": "Feature", "properties": { "id": "node/4853966094", "name": "Serra la Croce", "elevation": 1080.0 }, "geometry": { "type": "Point", "coordinates": [ 15.70439, 40.53945 ] } },
{ "type": "Feature", "properties": { "id": "node/6552503323", "name": "Monte San Jaso", "elevation": 1298.0 }, "geometry": { "type": "Point", "coordinates": [ 15.97439, 40.35326 ] } },
{ "type": "Feature", "properties": { "id": "node/7852175549", "name": "monte cognone", "elevation": 1032.0 }, "geometry": { "type": "Point", "coordinates": [ 15.72937, 40.43538 ] } },
{ "type": "Feature", "properties": { "id": "node/9416530674", "name": "Tempa Farna", "elevation": 1037.4 }, "geometry": { "type": "Point", "coordinates": [ 16.01267, 40.36306 ] } },
{ "type": "Feature", "properties": { "id": "node/9416557369", "name": "Cima San Pietro", "elevation": 1159.4 }, "geometry": { "type": "Point", "coordinates": [ 16.0644, 40.42898 ] } },
{ "type": "Feature", "properties": { "id": "node/9416638023", "name": "Monte Garbo", "elevation": 1222.3 }, "geometry": { "type": "Point", "coordinates": [ 15.98207, 40.36496 ] } },
{ "type": "Feature", "properties": { "id": "node/9502985773", "name": "Monte dell'Agresto", "elevation": 1285.0 }, "geometry": { "type": "Point", "coordinates": [ 16.00501, 40.34271 ] } },
{ "type": "Feature", "properties": { "id": "node/10026653483", "name": "Monte Petrone", "elevation": 786.3 }, "geometry": { "type": "Point", "coordinates": [ 15.86611, 40.34451 ] } },
{ "type": "Feature", "properties": { "id": "node/10026653484", "name": "Monte Castelluccio", "elevation": 782.0 }, "geometry": { "type": "Point", "coordinates": [ 15.87834, 40.34135 ] } },
{ "type": "Feature", "properties": { "id": "node/10030147015", "name": "Tempa Prelazia", "elevation": 829.0 }, "geometry": { "type": "Point", "coordinates": [ 16.0302, 40.34665 ] } },
{ "type": "Feature", "properties": { "id": "node/10075471061", "name": "Serra Lago Todaro", "elevation": 1122.4 }, "geometry": { "type": "Point", "coordinates": [ 15.9578, 40.36973 ] } },
{ "type": "Feature", "properties": { "id": "node/11268656816", "name": "Tuppo Dell'Uv", "elevation": 1081.0 }, "geometry": { "type": "Point", "coordinates": [ 16.04714, 40.54931 ] } },
{ "type": "Feature", "properties": { "id": "node/2560220434", "name": "Monte San Gennaro", "elevation": 1238.0 }, "geometry": { "type": "Point", "coordinates": [ 15.61887, 40.45822 ] } },
{ "type": "Feature", "properties": { "id": "node/2560328216", "name": "Tempa delle Rose", "elevation": 1445.0 }, "geometry": { "type": "Point", "coordinates": [ 15.629, 40.42513 ] } },
{ "type": "Feature", "properties": { "id": "node/2560329752", "name": "Monte Gargaruso", "elevation": 1323.0 }, "geometry": { "type": "Point", "coordinates": [ 15.6117, 40.43094 ] } },
{ "type": "Feature", "properties": { "id": "node/2560331843", "name": "Tempa dell'Irti", "elevation": 1230.0 }, "geometry": { "type": "Point", "coordinates": [ 15.59741, 40.43885 ] } },
{ "type": "Feature", "properties": { "id": "node/2560334146", "name": "Tempa Previtipietro", "elevation": 994.0 }, "geometry": { "type": "Point", "coordinates": [ 15.58616, 40.44456 ] } },
{ "type": "Feature", "properties": { "id": "node/2560336725", "name": "Monte Prtroso", "elevation": 846.0 }, "geometry": { "type": "Point", "coordinates": [ 15.5805, 40.43489 ] } },
{ "type": "Feature", "properties": { "id": "node/2560337691", "name": "Monte Faito", "elevation": 1278.0 }, "geometry": { "type": "Point", "coordinates": [ 15.59337, 40.47748 ] } },
{ "type": "Feature", "properties": { "id": "node/2560347897", "name": "Serra la Difesa", "elevation": 1252.0 }, "geometry": { "type": "Point", "coordinates": [ 15.59702, 40.48769 ] } },
{ "type": "Feature", "properties": { "id": "node/2563083460", "name": "Monte l'Alta", "elevation": 840.0 }, "geometry": { "type": "Point", "coordinates": [ 15.58158, 40.22232 ] } },
{ "type": "Feature", "properties": { "id": "node/2563088556", "name": "Serra della Forcella", "elevation": 1123.0 }, "geometry": { "type": "Point", "coordinates": [ 15.61235, 40.21871 ] } },
{ "type": "Feature", "properties": { "id": "node/2563090128", "name": "Monte Forcella", "elevation": 1192.0 }, "geometry": { "type": "Point", "coordinates": [ 15.62599, 40.21493 ] } },
{ "type": "Feature", "properties": { "id": "node/2563099872", "name": "Tempa di Sorufo", "elevation": 665.0 }, "geometry": { "type": "Point", "coordinates": [ 15.62827, 40.23395 ] } },
{ "type": "Feature", "properties": { "id": "node/2563102561", "name": "Monte Rotondo di Sanza", "elevation": 798.0 }, "geometry": { "type": "Point", "coordinates": [ 15.61128, 40.24417 ] } },
{ "type": "Feature", "properties": { "id": "node/2563103475", "name": "Cozzi dei Caprari", "elevation": 911.0 }, "geometry": { "type": "Point", "coordinates": [ 15.60806, 40.23172 ] } },
{ "type": "Feature", "properties": { "id": "node/2566316315", "name": "Monte Rotondo", "elevation": 1178.0 }, "geometry": { "type": "Point", "coordinates": [ 15.60745, 40.18933 ] } },
{ "type": "Feature", "properties": { "id": "node/2566317275", "name": "Monte Turco", "elevation": 893.0 }, "geometry": { "type": "Point", "coordinates": [ 15.62608, 40.1929 ] } },
{ "type": "Feature", "properties": { "id": "node/4815538089", "name": "Monte Vacchera", "elevation": 1103.0 }, "geometry": { "type": "Point", "coordinates": [ 15.62156, 40.2125 ] } },
{ "type": "Feature", "properties": { "id": "node/8895667717", "name": "Piesco rosso", "elevation": 826.0 }, "geometry": { "type": "Point", "coordinates": [ 15.60175, 40.39855 ] } },
{ "type": "Feature", "properties": { "id": "node/9656803379", "name": "Madonna Del Sito Alto", "elevation": 1466.0 }, "geometry": { "type": "Point", "coordinates": [ 15.6178, 40.40944 ] } },
{ "type": "Feature", "properties": { "id": "node/26864586", "name": "Serra Longa", "elevation": 1503.0 }, "geometry": { "type": "Point", "coordinates": [ 15.70723, 40.32449 ] } },
{ "type": "Feature", "properties": { "id": "node/2560223419", "name": "Croce Tempone Rosso", "elevation": 1321.0 }, "geometry": { "type": "Point", "coordinates": [ 15.63788, 40.44286 ] } },
{ "type": "Feature", "properties": { "id": "node/2563010975", "name": "Monte Cavallo", "elevation": 1401.0 }, "geometry": { "type": "Point", "coordinates": [ 15.66114, 40.39382 ] } },
{ "type": "Feature", "properties": { "id": "node/2563012032", "name": "Cozzo Postale", "elevation": 1136.0 }, "geometry": { "type": "Point", "coordinates": [ 15.66436, 40.37303 ] } },
{ "type": "Feature", "properties": { "id": "node/2563158830", "name": "Tempa Repezzata", "elevation": 921.8 }, "geometry": { "type": "Point", "coordinates": [ 15.78936, 40.30395 ] } },
{ "type": "Feature", "properties": { "id": "node/2563158831", "name": "Monticello", "elevation": 1013.0 }, "geometry": { "type": "Point", "coordinates": [ 15.80177, 40.32535 ] } },
{ "type": "Feature", "properties": { "id": "node/2563159684", "name": "Monte Aquila", "elevation": 1096.0 }, "geometry": { "type": "Point", "coordinates": [ 15.81206, 40.28748 ] } },
{ "type": "Feature", "properties": { "id": "node/2563162620", "name": "Monte la Gattina", "elevation": 1118.0 }, "geometry": { "type": "Point", "coordinates": [ 15.80053, 40.27154 ] } },
{ "type": "Feature", "properties": { "id": "node/2563163046", "name": "Monte Spagnoletto", "elevation": 1047.0 }, "geometry": { "type": "Point", "coordinates": [ 15.79945, 40.26532 ] } },
{ "type": "Feature", "properties": { "id": "node/2563183361", "name": "Tempa", "elevation": 929.0 }, "geometry": { "type": "Point", "coordinates": [ 15.70912, 40.26011 ] } },
{ "type": "Feature", "properties": { "id": "node/2563184026", "name": "Monte Piesco", "elevation": 1134.0 }, "geometry": { "type": "Point", "coordinates": [ 15.72625, 40.28022 ] } },
{ "type": "Feature", "properties": { "id": "node/2563185094", "name": "Monte Finocchiaro", "elevation": 1191.0 }, "geometry": { "type": "Point", "coordinates": [ 15.74002, 40.29125 ] } },
{ "type": "Feature", "properties": { "id": "node/2563186528", "name": "Paratiello", "elevation": 1429.0 }, "geometry": { "type": "Point", "coordinates": [ 15.71165, 40.31789 ] } },
{ "type": "Feature", "properties": { "id": "node/2563186720", "name": "Montagnone", "elevation": 1482.0 }, "geometry": { "type": "Point", "coordinates": [ 15.71045, 40.33003 ] } },
{ "type": "Feature", "properties": { "id": "node/2563326187", "name": "Serra Mare", "elevation": 1259.0 }, "geometry": { "type": "Point", "coordinates": [ 15.73569, 40.32891 ] } },
{ "type": "Feature", "properties": { "id": "node/2563328912", "name": "la Civita", "elevation": 919.0 }, "geometry": { "type": "Point", "coordinates": [ 15.73908, 40.34893 ] } },
{ "type": "Feature", "properties": { "id": "node/2563330719", "name": "Serra Longa", "elevation": 1097.0 }, "geometry": { "type": "Point", "coordinates": [ 15.7383, 40.34007 ] } },
{ "type": "Feature", "properties": { "id": "node/2563333926", "name": "Serra del Monaco", "elevation": 1388.0 }, "geometry": { "type": "Point", "coordinates": [ 15.7059, 40.35008 ] } },
{ "type": "Feature", "properties": { "id": "node/2563336029", "name": "Monte Melone", "elevation": 1082.0 }, "geometry": { "type": "Point", "coordinates": [ 15.67685, 40.35054 ] } },
{ "type": "Feature", "properties": { "id": "node/2563340720", "name": "Tempone dei Cerri", "elevation": 1216.0 }, "geometry": { "type": "Point", "coordinates": [ 15.67861, 40.3698 ] } },
{ "type": "Feature", "properties": { "id": "node/2563350471", "name": "l'Amoroso", "elevation": 1287.0 }, "geometry": { "type": "Point", "coordinates": [ 15.7044, 40.37804 ] } },
{ "type": "Feature", "properties": { "id": "node/2563354606", "name": "Monte dell'Uomo Morto", "elevation": 1280.0 }, "geometry": { "type": "Point", "coordinates": [ 15.70341, 40.38382 ] } },
{ "type": "Feature", "properties": { "id": "node/2563356046", "name": "Cozzo Vaccaro", "elevation": 1234.0 }, "geometry": { "type": "Point", "coordinates": [ 15.68007, 40.39336 ] } },
{ "type": "Feature", "properties": { "id": "node/6919496457", "name": "Roccia Viva", "elevation": 1340.0 }, "geometry": { "type": "Point", "coordinates": [ 15.70905, 40.36935 ] } },
{ "type": "Feature", "properties": { "id": "node/9039642169", "name": "Serra Malpasso", "elevation": 1411.0 }, "geometry": { "type": "Point", "coordinates": [ 15.72684, 40.29684 ] } },
{ "type": "Feature", "properties": { "id": "node/9039757840", "name": "Monte Vaiana", "elevation": 1158.0 }, "geometry": { "type": "Point", "coordinates": [ 15.76102, 40.26295 ] } },
{ "type": "Feature", "properties": { "id": "node/10283120037", "name": "Raia Caldarosa", "elevation": 782.8 }, "geometry": { "type": "Point", "coordinates": [ 15.8025, 40.33591 ] } },
{ "type": "Feature", "properties": { "id": "node/10876201244", "name": "Tempa d'Apollo", "elevation": 862.6 }, "geometry": { "type": "Point", "coordinates": [ 15.81198, 40.30231 ] } },
{ "type": "Feature", "properties": { "id": "node/26863943", "name": "Monte Raparo", "elevation": 1764.0 }, "geometry": { "type": "Point", "coordinates": [ 15.97805, 40.20193 ] } },
{ "type": "Feature", "properties": { "id": "node/2561492231", "name": "Cozzo del Demanio", "elevation": 1336.0 }, "geometry": { "type": "Point", "coordinates": [ 15.83975, 40.18772 ] } },
{ "type": "Feature", "properties": { "id": "node/2561496961", "name": "Tempa Ricotta Fetente", "elevation": 1280.0 }, "geometry": { "type": "Point", "coordinates": [ 15.85125, 40.19327 ] } },
{ "type": "Feature", "properties": { "id": "node/2561876087", "name": "Rocca Rossa", "elevation": 1408.0 }, "geometry": { "type": "Point", "coordinates": [ 15.81198, 40.18825 ] } },
{ "type": "Feature", "properties": { "id": "node/2563091415", "name": "Monte Muzzo", "elevation": 1176.0 }, "geometry": { "type": "Point", "coordinates": [ 15.64535, 40.20612 ] } },
{ "type": "Feature", "properties": { "id": "node/2563095094", "name": "Monte Cernicoli", "elevation": 1088.0 }, "geometry": { "type": "Point", "coordinates": [ 15.63277, 40.20035 ] } },
{ "type": "Feature", "properties": { "id": "node/2563096665", "name": "Timpone Vecchio", "elevation": 793.0 }, "geometry": { "type": "Point", "coordinates": [ 15.6608, 40.21359 ] } },
{ "type": "Feature", "properties": { "id": "node/2563098774", "name": "Cozzo d'Elice", "elevation": 729.0 }, "geometry": { "type": "Point", "coordinates": [ 15.64243, 40.22529 ] } },
{ "type": "Feature", "properties": { "id": "node/2563163695", "name": "Monte Calvarosa", "elevation": 1261.0 }, "geometry": { "type": "Point", "coordinates": [ 15.8055, 40.25137 ] } },
{ "type": "Feature", "properties": { "id": "node/2563165176", "name": "Monte Carpineto", "elevation": 1165.0 }, "geometry": { "type": "Point", "coordinates": [ 15.80057, 40.23869 ] } },
{ "type": "Feature", "properties": { "id": "node/2563166838", "name": "Giummuruto", "elevation": 959.0 }, "geometry": { "type": "Point", "coordinates": [ 15.82971, 40.23338 ] } },
{ "type": "Feature", "properties": { "id": "node/2563167515", "name": "Cogno Pizzuto", "elevation": 988.0 }, "geometry": { "type": "Point", "coordinates": [ 15.83889, 40.24268 ] } },
{ "type": "Feature", "properties": { "id": "node/2563167750", "name": "Carpineta", "elevation": 980.0 }, "geometry": { "type": "Point", "coordinates": [ 15.84769, 40.23666 ] } },
{ "type": "Feature", "properties": { "id": "node/2563169697", "name": "Monte Farno", "elevation": 1286.0 }, "geometry": { "type": "Point", "coordinates": [ 15.78581, 40.19861 ] } },
{ "type": "Feature", "properties": { "id": "node/2563172330", "name": "Serra della Stona", "elevation": 1110.0 }, "geometry": { "type": "Point", "coordinates": [ 15.73869, 40.25084 ] } },
{ "type": "Feature", "properties": { "id": "node/2563173609", "name": "la Rarete", "elevation": 1161.0 }, "geometry": { "type": "Point", "coordinates": [ 15.71629, 40.23984 ] } },
{ "type": "Feature", "properties": { "id": "node/2563176818", "name": "Monte Cosomale", "elevation": 1187.0 }, "geometry": { "type": "Point", "coordinates": [ 15.72659, 40.23093 ] } },
{ "type": "Feature", "properties": { "id": "node/2563178929", "name": "Cozzo Tondo", "elevation": 1105.0 }, "geometry": { "type": "Point", "coordinates": [ 15.72067, 40.23512 ] } },
{ "type": "Feature", "properties": { "id": "node/2563180201", "name": "Monte Cetolarino", "elevation": 841.0 }, "geometry": { "type": "Point", "coordinates": [ 15.6741, 40.20664 ] } },
{ "type": "Feature", "properties": { "id": "node/2563180933", "name": "Tempa di Antonio", "elevation": 808.0 }, "geometry": { "type": "Point", "coordinates": [ 15.7165, 40.20267 ] } },
{ "type": "Feature", "properties": { "id": "node/2563183144", "name": "Murgione", "elevation": 1080.0 }, "geometry": { "type": "Point", "coordinates": [ 15.71886, 40.25736 ] } },
{ "type": "Feature", "properties": { "id": "node/2563419597", "name": "la Serra", "elevation": 1062.0 }, "geometry": { "type": "Point", "coordinates": [ 15.98317, 40.24026 ] } },
{ "type": "Feature", "properties": { "id": "node/2563421244", "name": "Monte Tempaginata", "elevation": 772.0 }, "geometry": { "type": "Point", "coordinates": [ 15.96146, 40.24688 ] } },
{ "type": "Feature", "properties": { "id": "node/2563422092", "name": "Tempa Ciuccolone", "elevation": 707.0 }, "geometry": { "type": "Point", "coordinates": [ 15.93412, 40.24507 ] } },
{ "type": "Feature", "properties": { "id": "node/2563424079", "name": "Tempa Ceraso", "elevation": 827.0 }, "geometry": { "type": "Point", "coordinates": [ 15.93567, 40.23548 ] } },
{ "type": "Feature", "properties": { "id": "node/2563424386", "name": "Tempa le Farnie", "elevation": 891.0 }, "geometry": { "type": "Point", "coordinates": [ 15.94133, 40.2323 ] } },
{ "type": "Feature", "properties": { "id": "node/2563425766", "name": "Murgia d'Andrea", "elevation": 1426.0 }, "geometry": { "type": "Point", "coordinates": [ 15.95588, 40.20815 ] } },
{ "type": "Feature", "properties": { "id": "node/2563426705", "name": "La Bannera", "elevation": 1703.0 }, "geometry": { "type": "Point", "coordinates": [ 15.99408, 40.20156 ] } },
{ "type": "Feature", "properties": { "id": "node/2566320665", "name": "Monte Pecchinari", "elevation": 1063.0 }, "geometry": { "type": "Point", "coordinates": [ 15.63874, 40.19022 ] } },
{ "type": "Feature", "properties": { "id": "node/3111559246", "name": "Monte Capolavello", "elevation": 1231.0 }, "geometry": { "type": "Point", "coordinates": [ 15.92286, 40.19733 ] } },
{ "type": "Feature", "properties": { "id": "node/4204376619", "name": "Timpa del Conte", "elevation": 1100.0 }, "geometry": { "type": "Point", "coordinates": [ 15.89752, 40.18768 ] } },
{ "type": "Feature", "properties": { "id": "node/7944839804", "name": "Monte Raparello", "elevation": 1288.0 }, "geometry": { "type": "Point", "coordinates": [ 16.0119, 40.22495 ] } },
{ "type": "Feature", "properties": { "id": "node/10804761774", "name": "Tempa Falcone", "elevation": 858.0 }, "geometry": { "type": "Point", "coordinates": [ 15.85194, 40.25661 ] } },
{ "type": "Feature", "properties": { "id": "node/10816411196", "name": "Tempa Scirocco", "elevation": 958.1 }, "geometry": { "type": "Point", "coordinates": [ 15.8196, 40.22822 ] } }
]
}
